{"name":"Drinking Fountain - Monument Style Type 2", "street":"Argyle Square","loc":{"lon": 144.966300681984, "lat":-37.8028230823553}}
{"name":"Historic or Heritage Drinking Fountains ", "street":"Alexandra Park","loc":{"lon": 144.984920364319, "lat":-37.8271436317369}}
{"name":"unspecified type ", "street":"Point Park (DOCKLANDS)","loc":{"lon": 144.941868470487, "lat":-37.823175149235}}
{"name":"unspecified type ", "street":"MacArthur Square","loc":{"lon": 144.970547418275, "lat":-37.7982559069131}}
{"name":"Treated Timber Drinking Fountain ", "street":"Kings Domain","loc":{"lon": 144.975878353495, "lat":-37.8305976459062}}
{"name":"Drinking Fountain - Type 1", "street":"","loc":{"lon": 144.961727374315, "lat":-37.8152189970161}}
{"name":"Stainless Steel Drinking Fountain - Leaf Type", "street":"","loc":{"lon": 144.961742379397, "lat":-37.820991914186}}
{"name":"Treated Timber Drinking Fountain ", "street":"Kings Domain","loc":{"lon": 144.973740510501, "lat":-37.8221817397462}}
{"name":"Old Style Steel Drinking Fountain", "street":"","loc":{"lon": 144.983704510559, "lat":-37.8169270721097}}
{"name":"unspecified type ", "street":"Kensington Hall Reserve","loc":{"lon": 144.928734061166, "lat":-37.7882522144015}}
{"name":"Treated Timber Drinking Fountain ", "street":"Flagstaff Gardens","loc":{"lon": 144.955117032983, "lat":-37.8114382226361}}
{"name":"Treated Timber Drinking Fountain ", "street":"Neill & Canning Street Reserve (CARLTON)","loc":{"lon": 144.973741604387, "lat":-37.793329998512}}
{"name":"Concrete & Steel Drinking Fountain", "street":"","loc":{"lon": 144.971066379183, "lat":-37.8137989955788}}
{"name":"Treated Timber Drinking Fountain ", "street":"Kings Domain","loc":{"lon": 144.984648510053, "lat":-37.8284329786086}}
{"name":"Concrete Drinking Fountain", "street":"","loc":{"lon": 144.961239092637, "lat":-37.7913944173142}}
{"name":"Treated Timber Drinking Fountain ", "street":"Carlton Gardens South","loc":{"lon": 144.969548762115, "lat":-37.8053030301859}}
{"name":"Stainless Steel Drinking Fountain - Leaf Type", "street":"","loc":{"lon": 144.945367756806, "lat":-37.8213916576197}}
{"name":"Treated Timber Drinking Fountain ", "street":"JJ Holland Park","loc":{"lon": 144.925955928479, "lat":-37.7989244918812}}
{"name":"Historic or Heritage Drinking Fountains ", "street":"Fawkner Park","loc":{"lon": 144.982370345188, "lat":-37.8434054720592}}
{"name":"Stainless Steel Drinking Fountain - Leaf Type", "street":"Argyle Square","loc":{"lon": 144.965638046316, "lat":-37.8026212179985}}
{"name":"Stainless Steel Drinking Fountain - Leaf Type", "street":"","loc":{"lon": 144.966627943958, "lat":-37.8111151489701}}
{"name":"Historic or Heritage Drinking Fountains ", "street":"Princes Park","loc":{"lon": 144.961256868582, "lat":-37.7914211295685}}
{"name":"Stainless Steel Drinking Fountain - Leaf Type", "street":"","loc":{"lon": 144.964779345702, "lat":-37.8180486719372}}
{"name":"Stainless Steel Drinking Fountain - Leaf Type", "street":"","loc":{"lon": 144.964346228221, "lat":-37.8104795070054}}
{"name":"Stainless Steel Drinking Fountain - Leaf Type", "street":"","loc":{"lon": 144.963806358965, "lat":-37.8072992024533}}
{"name":"Concrete & Steel Drinking Fountain", "street":"","loc":{"lon": 144.924647994939, "lat":-37.7877830447943}}
{"name":"Treated Timber Drinking Fountain ", "street":"Princes Park","loc":{"lon": 144.959446493976, "lat":-37.7871450445505}}
{"name":"Treated Timber Drinking Fountain ", "street":"JJ Holland Park","loc":{"lon": 144.921717597112, "lat":-37.7981300933256}}
{"name":"Treated Timber Drinking Fountain ", "street":"Darling Square","loc":{"lon": 144.98924115988, "lat":-37.813287174728}}
{"name":"Treated Timber Drinking Fountain ", "street":"Alexandra Gardens","loc":{"lon": 144.970680416375, "lat":-37.8207250049104}}
{"name":"Historic or Heritage Drinking Fountains ", "street":"Princes Park","loc":{"lon": 144.962456506622, "lat":-37.7809868565721}}
{"name":"Treated Timber Drinking Fountain ", "street":"Princes Park","loc":{"lon": 144.962929622337, "lat":-37.7852346413108}}
{"name":"Stainless Steel Drinking Fountain - Leaf Type", "street":"","loc":{"lon": 144.965015438588, "lat":-37.8124300454609}}
{"name":"Treated Timber Drinking Fountain ", "street":"Carlton Gardens North","loc":{"lon": 144.971060760812, "lat":-37.8022068688706}}
{"name":"Historic or Heritage Drinking Fountains ", "street":"Fitzroy Gardens","loc":{"lon": 144.978592927319, "lat":-37.8138773484209}}
{"name":"Treated Timber Drinking Fountain ", "street":"Royal Park","loc":{"lon": 144.955426927368, "lat":-37.7897245275668}}
{"name":"Treated Timber Drinking Fountain ", "street":"Batman Park","loc":{"lon": 144.956603131736, "lat":-37.8222023272007}}
{"name":"Drinking Fountain - Type 2", "street":"Princes Park","loc":{"lon": 144.962945992506, "lat":-37.7852050052797}}
{"name":"Stainless Steel Drinking Fountain - Leaf Type", "street":"","loc":{"lon": 144.945842958938, "lat":-37.818126259337}}
{"name":"Drinking Fountain - Type 1", "street":"","loc":{"lon": 144.956390045111, "lat":-37.8060370483463}}
{"name":"Drinking Fountain - Type 2", "street":"Birrarung Marr","loc":{"lon": 144.971321015306, "lat":-37.8181739999987}}
{"name":"Treated Timber Drinking Fountain ", "street":"Royal Park","loc":{"lon": 144.956403373108, "lat":-37.7914813793466}}
{"name":"Drinking Fountain - Type 1", "street":"","loc":{"lon": 144.965248212189, "lat":-37.8137034649939}}
{"name":"Drinking Fountain - Type 1", "street":"","loc":{"lon": 144.963430407694, "lat":-37.8044378624048}}
{"name":"Drinking Fountain - Type 1", "street":"","loc":{"lon": 144.988931564366, "lat":-37.8123221312335}}
{"name":"Drinking Fountain - Type 2", "street":"Stock Route Reserve (KENSINGTON)","loc":{"lon": 144.926231329778, "lat":-37.7885810783351}}
{"name":"Stainless Steel Drinking Fountain - Leaf Type", "street":"","loc":{"lon": 144.975186198201, "lat":-37.8111844026084}}
{"name":"Treated Timber Drinking Fountain ", "street":"Royal Park","loc":{"lon": 144.941902383712, "lat":-37.7829891344662}}
{"name":"Treated Timber Drinking Fountain ", "street":"Fawkner Park","loc":{"lon": 144.981295960091, "lat":-37.8399185215986}}
{"name":"Stainless Steel Drinking Fountain - Leaf Type", "street":"","loc":{"lon": 144.965355892958, "lat":-37.8127106974657}}
{"name":"Urban design stainless steel", "street":"","loc":{"lon": 144.940048308565, "lat":-37.7933781917326}}
{"name":"Stainless Steel Drinking Fountain - Leaf Type", "street":"","loc":{"lon": 144.944594993807, "lat":-37.8194922863988}}
{"name":"Stainless Steel Drinking Fountain - Leaf Type", "street":"","loc":{"lon": 144.942545603486, "lat":-37.8193041943781}}
{"name":"Stainless Steel Drinking Fountain - Leaf Type", "street":"","loc":{"lon": 144.968992038075, "lat":-37.815063091385}}
{"name":"Treated Timber Drinking Fountain ", "street":"Shrine Gardens","loc":{"lon": 144.975544260503, "lat":-37.8321000182724}}
{"name":"Stainless Steel Drinking Fountain - Leaf Type", "street":"","loc":{"lon": 144.961092341304, "lat":-37.8102778502281}}
{"name":"Drinking Fountain - Type 2", "street":"Birrarung Marr","loc":{"lon": 144.974629136425, "lat":-37.8194642114052}}
{"name":"Historic or Heritage Drinking Fountains ", "street":"JJ Holland Park","loc":{"lon": 144.9234929606, "lat":-37.7974551628582}}
{"name":"Stainless Steel Drinking Fountain - Leaf Type", "street":"","loc":{"lon": 144.944888982298, "lat":-37.8144753618661}}
{"name":"Stainless Steel Drinking Fountain - Leaf Type", "street":"","loc":{"lon": 144.943960835414, "lat":-37.8205126961141}}
{"name":"Furniture Style", "street":"","loc":{"lon": 144.960625078586, "lat":-37.8201910682056}}
{"name":"Treated Timber Drinking Fountain ", "street":"Parkville Gardens (PARKVILLE)","loc":{"lon": 144.939846538515, "lat":-37.7795533220187}}
{"name":"unspecified type ", "street":"Gardiner Reserve","loc":{"lon": 144.943359524639, "lat":-37.7989933421049}}
{"name":"Stainless Steel Drinking Fountain - Leaf Type", "street":"Fawkner Park","loc":{"lon": 144.984564016458, "lat":-37.8382179457731}}
{"name":"Stainless Steel Drinking Fountain - Leaf Type", "street":"","loc":{"lon": 144.94314585668, "lat":-37.8199269383232}}
{"name":"Old Style Steel Drinking Fountain", "street":"","loc":{"lon": 144.974452452119, "lat":-37.8083189238676}}
{"name":"Historic or Heritage Drinking Fountains ", "street":"Princes Park","loc":{"lon": 144.961038945532, "lat":-37.7799031684291}}
{"name":"Concrete Drinking Fountain", "street":"","loc":{"lon": 144.951507394579, "lat":-37.7771369785182}}
{"name":"Drinking Fountain - Type 1", "street":"","loc":{"lon": 144.964745011938, "lat":-37.8174375320117}}
{"name":"Treated Timber Drinking Fountain ", "street":"Princes Park","loc":{"lon": 144.962461738758, "lat":-37.7886679717956}}
{"name":"Drinking Fountain - Type 1", "street":"","loc":{"lon": 144.960130375556, "lat":-37.8175239427856}}
{"name":"Stainless Steel Drinking Fountain - Leaf Type", "street":"","loc":{"lon": 144.966132335897, "lat":-37.8143731739698}}
{"name":"Stainless Steel Drinking Fountain - Leaf Type", "street":"","loc":{"lon": 144.94348692913, "lat":-37.8189392634782}}
{"name":"Drinking Fountain - Type 1", "street":"","loc":{"lon": 144.987796479912, "lat":-37.8173491628441}}
{"name":"Stainless Steel Drinking Fountain - Leaf Type", "street":"","loc":{"lon": 144.964728539214, "lat":-37.8138599395784}}
{"name":"Treated Timber Drinking Fountain ", "street":"Princes Park","loc":{"lon": 144.960393739186, "lat":-37.7846882561589}}
{"name":"Wooden Slat Supports", "street":"","loc":{"lon": 144.963069935133, "lat":-37.7860671446287}}
{"name":"Treated Timber Drinking Fountain ", "street":"Alexandra Park","loc":{"lon": 144.981946960227, "lat":-37.8276019583895}}
{"name":"Treated Timber Drinking Fountain ", "street":"Princes Park","loc":{"lon": 144.961695691407, "lat":-37.7786294524584}}
{"name":"Treated Timber Drinking Fountain ", "street":"Fitzroy Gardens","loc":{"lon": 144.977702378095, "lat":-37.81450477697}}
{"name":"Duke & Duchess of York Memorial Drinking Fountain", "street":"","loc":{"lon": 144.959913344404, "lat":-37.806631907877}}
{"name":"Stainless Steel Drinking Fountain - Northbank Type", "street":"","loc":{"lon": 144.964414082383, "lat":-37.8193525766697}}
{"name":"Stainless Steel Drinking Fountain - Leaf Type", "street":"","loc":{"lon": 144.965135403542, "lat":-37.8160039301753}}
{"name":"Treated Timber Drinking Fountain ", "street":"Shrine Gardens","loc":{"lon": 144.974275123053, "lat":-37.8308155512498}}
{"name":"Treated Timber Drinking Fountain ", "street":"Royal Park","loc":{"lon": 144.951506706432, "lat":-37.7771248907494}}
{"name":"Stainless Steel Drinking Fountain - Old Docklands Type", "street":"","loc":{"lon": 144.940561984294, "lat":-37.815397268276}}
{"name":"Furniture Style", "street":"","loc":{"lon": 144.988916966643, "lat":-37.8123200795591}}
{"name":"Treated Timber Drinking Fountain ", "street":"Royal Park","loc":{"lon": 144.956068444814, "lat":-37.7819712878515}}
{"name":"unspecified type ", "street":"University Square","loc":{"lon": 144.960216218411, "lat":-37.801486298576}}
{"name":"unspecified type ", "street":"Fawkner Park","loc":{"lon": 144.984741591174, "lat":-37.8410538306513}}
{"name":"Stainless Steel Drinking Fountain - Leaf Type", "street":"Victoria Green","loc":{"lon": 144.944845229573, "lat":-37.8202756279903}}
{"name":"Treated Timber Drinking Fountain ", "street":"Carlton Gardens North","loc":{"lon": 144.972022903167, "lat":-37.8024172855381}}
{"name":"Treated Timber Drinking Fountain ", "street":"Fawkner Park","loc":{"lon": 144.984396178064, "lat":-37.8424923204702}}
{"name":"Stainless Steel Drinking Fountain - Leaf Type", "street":"","loc":{"lon": 144.967041099344, "lat":-37.8163108962497}}
{"name":"Stainless Steel Drinking Fountain - Leaf Type", "street":"","loc":{"lon": 144.967151357786, "lat":-37.8110492083965}}
{"name":"Drinking Fountain - Type 1", "street":"","loc":{"lon": 144.958355407546, "lat":-37.815543937634}}
{"name":"Historic or Heritage Drinking Fountains ", "street":"Boyd Community Hub (SOUTHBANK)","loc":{"lon": 144.960998006489, "lat":-37.8255335607019}}
{"name":"Drinking Fountain - Type 1", "street":"","loc":{"lon": 144.95806339729, "lat":-37.8062698327552}}
{"name":"Treated Timber Drinking Fountain ", "street":"Queen Victoria Gardens","loc":{"lon": 144.971144015376, "lat":-37.8224930810626}}
{"name":"Drinking Fountain - Type 1", "street":"","loc":{"lon": 144.952843680622, "lat":-37.7973538076263}}
{"name":"Drinking Fountain - Type 1", "street":"","loc":{"lon": 144.979851703209, "lat":-37.8233760949565}}
{"name":"Stainless Steel Drinking Fountain - Leaf Type", "street":"","loc":{"lon": 144.965212921338, "lat":-37.8123782161347}}
{"name":"Treated Timber Drinking Fountain ", "street":"Miles & Dodds Street Reserve","loc":{"lon": 144.96722649718, "lat":-37.8286739865914}}
{"name":"Old Style Steel Drinking Fountain", "street":"","loc":{"lon": 144.96744736483, "lat":-37.7977518532797}}
{"name":"Stainless Steel Drinking Fountain - Leaf Type", "street":"","loc":{"lon": 144.942258642823, "lat":-37.81378184057}}
{"name":"Stainless Steel Drinking Fountain - Leaf Type", "street":"","loc":{"lon": 144.930295918047, "lat":-37.7943143856463}}
{"name":"Treated Timber Drinking Fountain ", "street":"Eades Park","loc":{"lon": 144.95128453583, "lat":-37.8071507715669}}
{"name":"Drinking Fountain - Type 1", "street":"","loc":{"lon": 144.956625283449, "lat":-37.8180379354233}}
{"name":"Drinking Fountain - Type 1", "street":"","loc":{"lon": 144.960607945986, "lat":-37.8201820300601}}
{"name":"Treated Timber Drinking Fountain ", "street":"Flagstaff Gardens","loc":{"lon": 144.955583954922, "lat":-37.810431066404}}
{"name":"Historic or Heritage Drinking Fountains ", "street":"Warun Biik Park","loc":{"lon": 144.926753237157, "lat":-37.7962259109448}}
{"name":"Treated Timber Drinking Fountain ", "street":"Lincoln Square","loc":{"lon": 144.962995339626, "lat":-37.8022284908846}}
{"name":"Drinking Fountain - Type 1", "street":"","loc":{"lon": 144.924067691334, "lat":-37.7901987770375}}
{"name":"Stainless Steel Drinking Fountain - Leaf Type", "street":"","loc":{"lon": 144.966325711471, "lat":-37.8179066908154}}
{"name":"Stainless Steel Drinking Fountain - Leaf Type", "street":"","loc":{"lon": 144.943762558022, "lat":-37.820002414232}}
{"name":"Treated Timber Drinking Fountain ", "street":"JJ Holland Park","loc":{"lon": 144.923579544986, "lat":-37.7987999771127}}
{"name":"Treated Timber Drinking Fountain ", "street":"Royal Park","loc":{"lon": 144.95317138629, "lat":-37.785579041496}}
{"name":"Drinking Fountain - Type 1", "street":"","loc":{"lon": 144.961074349375, "lat":-37.8078639183934}}
{"name":"Concrete Drinking Fountain", "street":"","loc":{"lon": 144.956035097922, "lat":-37.7784542170728}}
{"name":"Treated Timber Drinking Fountain ", "street":"Fawkner Park","loc":{"lon": 144.981874024242, "lat":-37.8379130448111}}
{"name":"Stainless Steel Drinking Fountain - Leaf Type", "street":"","loc":{"lon": 144.946451410301, "lat":-37.8211836478482}}
{"name":"Treated Timber Drinking Fountain ", "street":"Gardiner Reserve","loc":{"lon": 144.943386064893, "lat":-37.7989946166656}}
{"name":"Treated Timber Drinking Fountain ", "street":"Flagstaff Gardens","loc":{"lon": 144.953636255664, "lat":-37.8101099394789}}
{"name":"Treated Timber Drinking Fountain ", "street":"Parliament Reserve","loc":{"lon": 144.973835252652, "lat":-37.8097972318519}}
{"name":"Treated Timber Drinking Fountain ", "street":"Sturt Street Reserve","loc":{"lon": 144.965023906624, "lat":-37.8297620432902}}
{"name":"Stainless Steel Drinking Fountain - Leaf Type", "street":"","loc":{"lon": 144.965219207312, "lat":-37.8137090016524}}
{"name":"Drinking Fountain - Type 2", "street":"Birrarung Marr","loc":{"lon": 144.975583485863, "lat":-37.8203259277386}}
{"name":"Treated Timber Drinking Fountain ", "street":"Royal Park","loc":{"lon": 144.956034446784, "lat":-37.7784531243578}}
{"name":"Stainless Steel Drinking Fountain - Leaf Type", "street":"","loc":{"lon": 144.939894906542, "lat":-37.8155172600938}}
{"name":"Drinking Fountain - Lygon St Type", "street":"","loc":{"lon": 144.966845427488, "lat":-37.8005648545151}}
{"name":"Stainless Steel Drinking Fountain - Leaf Type", "street":"","loc":{"lon": 144.972423978708, "lat":-37.8103390595552}}
{"name":"Historic or Heritage Drinking Fountains ", "street":"Grant Street Reserve","loc":{"lon": 144.96821302912, "lat":-37.8260191227729}}
{"name":"Treated Timber Drinking Fountain ", "street":"Batman Park","loc":{"lon": 144.957262174812, "lat":-37.8218641077308}}
{"name":"Historic or Heritage Drinking Fountains ", "street":"Liddy Street Reserve (KENSINGTON)","loc":{"lon": 144.925755956774, "lat":-37.7900968622631}}
{"name":"Stainless Steel Drinking Fountain - Leaf Type", "street":"","loc":{"lon": 144.954519784826, "lat":-37.8190677360715}}
{"name":"Stainless Steel Drinking Fountain - Leaf Type", "street":"","loc":{"lon": 144.946278712192, "lat":-37.8176596635148}}
{"name":"Treated Timber Drinking Fountain ", "street":"Fitzroy Gardens","loc":{"lon": 144.980340539859, "lat":-37.8135869679778}}
{"name":"Treated Timber Drinking Fountain ", "street":"Carlton Gardens South","loc":{"lon": 144.970975333101, "lat":-37.8069631673755}}
{"name":"Drinking Fountain - Type 1", "street":"","loc":{"lon": 144.94696422855, "lat":-37.8072589158374}}
{"name":"Treated Timber Drinking Fountain ", "street":"Fawkner Park","loc":{"lon": 144.978059413628, "lat":-37.8386331437282}}
{"name":"Stainless Steel Drinking Fountain - Leaf Type", "street":"","loc":{"lon": 144.938477376119, "lat":-37.8146951829793}}
{"name":"Treated Timber Drinking Fountain ", "street":"Bellair Street Reserve","loc":{"lon": 144.93076737696, "lat":-37.7955251967576}}
{"name":"Drinking Fountain - Type 1", "street":"","loc":{"lon": 144.957826347421, "lat":-37.8020149628465}}
{"name":"Drinking Fountain - Type 2", "street":"Enterprize Park","loc":{"lon": 144.959797443838, "lat":-37.8199982974538}}
{"name":"Stainless Steel Drinking Fountain - Leaf Type", "street":"","loc":{"lon": 144.966652766471, "lat":-37.8133404023725}}
{"name":"Drinking Fountain - Type 1", "street":"","loc":{"lon": 144.929751385287, "lat":-37.7920686414837}}
{"name":"Drinking Fountain - Monument Style Type 3", "street":"","loc":{"lon": 144.978859348092, "lat":-37.8184030405084}}
{"name":"Historic or Heritage Drinking Fountains ", "street":"Shrine Gardens","loc":{"lon": 144.97285892461, "lat":-37.8324980002738}}
{"name":"Treated Timber Drinking Fountain ", "street":"Treasury Gardens","loc":{"lon": 144.976124010635, "lat":-37.8143785287805}}
{"name":"unspecified type ", "street":"Princes Park","loc":{"lon": 144.959998635201, "lat":-37.7836624497961}}
{"name":"Drinking Fountain - Type 1", "street":"","loc":{"lon": 144.959340358155, "lat":-37.8178349467129}}
{"name":"Stainless Steel Drinking Fountain - Leaf Type", "street":"","loc":{"lon": 144.964098035729, "lat":-37.810438177723}}
{"name":"Stainless Steel Drinking Fountain - Leaf Type", "street":"","loc":{"lon": 144.962426456737, "lat":-37.8121199672838}}
{"name":"Drinking Fountain - Type 1", "street":"","loc":{"lon": 144.931475768937, "lat":-37.7912512068003}}
{"name":"Wooden Slat Supports", "street":"","loc":{"lon": 144.947688456934, "lat":-37.7934187605767}}
{"name":"Treated Timber Drinking Fountain ", "street":"Peppercorn Park","loc":{"lon": 144.922630804458, "lat":-37.7925641627077}}
{"name":"Drinking Fountain - Type 1", "street":"","loc":{"lon": 144.972702422397, "lat":-37.8160100060486}}
{"name":"Drinking Fountain - Monument Style Type 3", "street":"","loc":{"lon": 144.969313669355, "lat":-37.7856029837435}}
{"name":"Treated Timber Drinking Fountain ", "street":"Pleasance Gardens","loc":{"lon": 144.945028572935, "lat":-37.7963006586269}}
{"name":"Historic or Heritage Drinking Fountains ", "street":"Fawkner Park","loc":{"lon": 144.981301397895, "lat":-37.8399066292199}}
{"name":"Stainless Steel Drinking Fountain - Leaf Type", "street":"","loc":{"lon": 144.984575711778, "lat":-37.838226617047}}
{"name":"Stainless Steel Drinking Fountain - Leaf Type", "street":"","loc":{"lon": 144.945564128265, "lat":-37.8160140916031}}
{"name":"Treated Timber Drinking Fountain ", "street":"Ievers Reserve","loc":{"lon": 144.952956259261, "lat":-37.7963447344051}}
{"name":"Treated Timber Drinking Fountain ", "street":"Kings Domain","loc":{"lon": 144.974217054362, "lat":-37.8282818889709}}
{"name":"Treated Timber Drinking Fountain ", "street":"Kings Domain","loc":{"lon": 144.972121279645, "lat":-37.8246840036188}}
{"name":"Stainless Steel Drinking Fountain - Leaf Type", "street":"Argyle Square","loc":{"lon": 144.96613628041, "lat":-37.8022579080883}}
{"name":"Drinking Fountain - Type 1", "street":"","loc":{"lon": 144.96718715543, "lat":-37.7970152444059}}
{"name":"Stainless Steel Drinking Fountain - Leaf Type", "street":"Fawkner Park","loc":{"lon": 144.980295973074, "lat":-37.8391230248312}}
{"name":"Treated Timber Drinking Fountain ", "street":"Hawke & Adderley St Reserve","loc":{"lon": 144.944890535566, "lat":-37.8087950213641}}
{"name":"Historic or Heritage Drinking Fountains ", "street":"Victoria Green","loc":{"lon": 144.944845461501, "lat":-37.82012801999}}
{"name":"Drinking Fountain - Type 1", "street":"","loc":{"lon": 144.985157489915, "lat":-37.8164909011536}}
{"name":"Drinking Fountain - Type 2", "street":"St Kilda Road (MELBOURNE)","loc":{"lon": 144.974928983582, "lat":-37.8346600379193}}
{"name":"Ornamental Drinking Fountain ", "street":"Errol St North Melbourne","loc":{"lon": 144.949730464028, "lat":-37.803336444618}}
{"name":"Drinking Fountain - Type 1", "street":"","loc":{"lon": 144.96508163687, "lat":-37.8160258908452}}
{"name":"Drinking Fountain - Type 1", "street":"","loc":{"lon": 144.974677479787, "lat":-37.797824870902}}
{"name":"Drinking Fountain - Type 2", "street":"Pleasance Gardens","loc":{"lon": 144.94643628596, "lat":-37.7963890175861}}
{"name":"Stainless Steel Drinking Fountain - Leaf Type", "street":"","loc":{"lon": 144.9668716689, "lat":-37.8177537274178}}
{"name":"Drinking Fountain - Type 1", "street":"","loc":{"lon": 144.953157128025, "lat":-37.7855772617003}}
{"name":"Concrete Drinking Fountain", "street":"","loc":{"lon": 144.953272310843, "lat":-37.7773560967073}}
{"name":"Stainless Steel Drinking Fountain - Leaf Type", "street":"","loc":{"lon": 144.973744691902, "lat":-37.8131969884489}}
{"name":"Drinking Fountain - Monument Style Type 5", "street":"","loc":{"lon": 144.966188775083, "lat":-37.7852831257006}}
{"name":"Stainless Steel Drinking Fountain - Leaf Type", "street":"","loc":{"lon": 144.955931644356, "lat":-37.8071156398032}}
{"name":"Stainless Steel Drinking Fountain - Leaf Type", "street":"","loc":{"lon": 144.959074480367, "lat":-37.8063368355959}}
{"name":"Treated Timber Drinking Fountain ", "street":"Royal Park","loc":{"lon": 144.955954729881, "lat":-37.7814416740215}}
{"name":"Wooden Slat Supports", "street":"","loc":{"lon": 144.962422063587, "lat":-37.7886861200393}}
{"name":"Treated Timber Drinking Fountain ", "street":"Flagstaff Gardens","loc":{"lon": 144.954546176127, "lat":-37.8093127088487}}
{"name":"Stainless Steel Drinking Fountain - Leaf Type", "street":"","loc":{"lon": 144.963685063425, "lat":-37.814029433262}}
{"name":"Drinking Fountain - Type 1", "street":"","loc":{"lon": 144.990975495319, "lat":-37.8109871379508}}
{"name":"Stainless Steel Drinking Fountain - Leaf Type", "street":"","loc":{"lon": 144.967055010755, "lat":-37.8154477195646}}
{"name":"Treated Timber Drinking Fountain ", "street":"Carlton Gardens South","loc":{"lon": 144.972648218328, "lat":-37.8071948357995}}
{"name":"Treated Timber Drinking Fountain ", "street":"Ievers Reserve","loc":{"lon": 144.952046464975, "lat":-37.796867279491}}
{"name":"Stainless Steel Drinking Fountain - Leaf Type", "street":"","loc":{"lon": 144.969336969341, "lat":-37.8167897469}}
{"name":"Drinking Fountain - Type 1", "street":"","loc":{"lon": 144.959726717503, "lat":-37.8199965311974}}
{"name":"Treated Timber Drinking Fountain ", "street":"Fitzroy Gardens","loc":{"lon": 144.978651442452, "lat":-37.8142641472479}}
{"name":"Treated Timber Drinking Fountain ", "street":"Bayswater Road Park","loc":{"lon": 144.923526146639, "lat":-37.7936582061843}}
{"name":"Treated Timber Drinking Fountain ", "street":"Alexandra Park","loc":{"lon": 144.978301001999, "lat":-37.8251430898605}}
{"name":"Treated Timber Drinking Fountain ", "street":"Clayton Reserve","loc":{"lon": 144.938864246732, "lat":-37.7968861153921}}
{"name":"Stainless Steel Drinking Fountain - Leaf Type", "street":"","loc":{"lon": 144.94580509191, "lat":-37.8194593344152}}
{"name":"Historic or Heritage Drinking Fountains ", "street":"Shrine Gardens","loc":{"lon": 144.973028498262, "lat":-37.8322430037609}}
{"name":"Drinking Fountain - Type 1", "street":"","loc":{"lon": 144.960354376996, "lat":-37.8149699277057}}
{"name":"Treated Timber Drinking Fountain ", "street":"Carlton Gardens North","loc":{"lon": 144.972831003681, "lat":-37.80211398428}}
{"name":"Stainless Steel Drinking Fountain - Leaf Type", "street":"","loc":{"lon": 144.952577560092, "lat":-37.8151856955789}}
{"name":"Drinking Fountain - Type 1", "street":"","loc":{"lon": 144.960600413278, "lat":-37.8195600890318}}
{"name":"Drinking Fountain - Type 1", "street":"","loc":{"lon": 144.949110367753, "lat":-37.8050183240013}}
{"name":"Treated Timber Drinking Fountain ", "street":"Fitzroy Gardens","loc":{"lon": 144.981550273258, "lat":-37.8127669117626}}
{"name":"Treated Timber Drinking Fountain ", "street":"Royal Park","loc":{"lon": 144.951756910505, "lat":-37.7916643454951}}
{"name":"Historic or Heritage Drinking Fountains ", "street":"Merritts Place (MELBOURNE)","loc":{"lon": 144.955585234101, "lat":-37.8146671517901}}
{"name":"Treated Timber Drinking Fountain", "street":"","loc":{"lon": 144.984601914497, "lat":-37.828420916274}}
{"name":"Treated Timber Drinking Fountain ", "street":"Carlton Gardens South","loc":{"lon": 144.97143107579, "lat":-37.805961249315}}
{"name":"Drinking Fountain - Type 1", "street":"","loc":{"lon": 144.926231546702, "lat":-37.7885814426244}}
{"name":"Treated Timber Drinking Fountain ", "street":"Murchison Square","loc":{"lon": 144.972735460332, "lat":-37.8004077596256}}
{"name":"Stainless Steel Drinking Fountain - Leaf Type", "street":"","loc":{"lon": 144.95788106825, "lat":-37.807260397828}}
{"name":"Concrete Drinking Fountain", "street":"","loc":{"lon": 144.982561402047, "lat":-37.8452141594852}}
{"name":"Stainless Steel Drinking Fountain - Leaf Type", "street":"","loc":{"lon": 144.963061369489, "lat":-37.8076874316715}}
{"name":"Treated Timber Drinking Fountain ", "street":"Powlett Reserve","loc":{"lon": 144.986823716213, "lat":-37.8110854710656}}
{"name":"Stainless Steel Drinking Fountain - Leaf Type", "street":"","loc":{"lon": 144.944677963517, "lat":-37.8183933129014}}
{"name":"Treated Timber Drinking Fountain ", "street":"Treasury Gardens","loc":{"lon": 144.974906315926, "lat":-37.8136951369858}}
{"name":"Stainless Steel Drinking Fountain - Leaf Type", "street":"","loc":{"lon": 144.937125497114, "lat":-37.8151598514014}}
{"name":"Treated Timber Drinking Fountain ", "street":"Birrarung Marr","loc":{"lon": 144.974081553572, "lat":-37.8187709779357}}
{"name":"Drinking Fountain - Type 1", "street":"","loc":{"lon": 144.974884417121, "lat":-37.8346360209983}}
{"name":"Stainless Steel Drinking Fountain - Leaf Type", "street":"","loc":{"lon": 144.945698113849, "lat":-37.8244933091171}}
{"name":"Treated Timber Drinking Fountain ", "street":"Fitzroy Gardens","loc":{"lon": 144.982267157829, "lat":-37.8156915367919}}
{"name":"Treated Timber Drinking Fountain ", "street":"Royal Park","loc":{"lon": 144.953278005616, "lat":-37.7773389831373}}
{"name":"Stainless Steel Drinking Fountain - Leaf Type", "street":"","loc":{"lon": 144.967720286969, "lat":-37.8105660851822}}
{"name":"Treated Timber Drinking Fountain ", "street":"Fitzroy Gardens","loc":{"lon": 144.982685205849, "lat":-37.8136756441834}}
{"name":"Treated Timber Drinking Fountain ", "street":"Alexandra Gardens","loc":{"lon": 144.97293196853, "lat":-37.8208779687721}}
{"name":"Stainless Steel Drinking Fountain - Leaf Type", "street":"","loc":{"lon": 144.946953100364, "lat":-37.8246883150092}}
{"name":"Drinking Fountain - Type 1", "street":"","loc":{"lon": 144.967054551642, "lat":-37.8154478918731}}
{"name":"Treated Timber Drinking Fountain ", "street":"Fawkner Park","loc":{"lon": 144.982562518304, "lat":-37.8452148995552}}
{"name":"Stainless Steel Drinking Fountain - Leaf Type", "street":"","loc":{"lon": 144.9639184501, "lat":-37.8139402875833}}
{"name":"Stainless Steel Drinking Fountain - Leaf Type", "street":"","loc":{"lon": 144.962480022464, "lat":-37.8076881881237}}
{"name":"Urban Design Style", "street":"","loc":{"lon": 144.973986297003, "lat":-37.7973592380457}}
{"name":"Drinking Fountain - Type 1", "street":"","loc":{"lon": 144.968349902378, "lat":-37.8126175750229}}
{"name":"Treated Timber Drinking Fountain ", "street":"Royal Park","loc":{"lon": 144.953492938285, "lat":-37.7861520110883}}
{"name":"Stainless Steel Drinking Fountain - Leaf Type", "street":"","loc":{"lon": 144.943361108464, "lat":-37.820079301736}}
{"name":"Treated Timber Drinking Fountain ", "street":"Alexandra Gardens","loc":{"lon": 144.973185269625, "lat":-37.820518073913}}
{"name":"Stainless Steel Drinking Fountain - Leaf Type", "street":"Fawkner Park","loc":{"lon": 144.984202033405, "lat":-37.8405910312944}}
{"name":"Drinking Fountain - Type 2", "street":"Birrarung Marr","loc":{"lon": 144.973882115034, "lat":-37.8184660124554}}
{"name":"Drinking Fountain - Type 1", "street":"","loc":{"lon": 144.970768525522, "lat":-37.8119117545416}}
{"name":"Stainless Steel Drinking Fountain - Leaf Type", "street":"","loc":{"lon": 144.94657955181, "lat":-37.8183432233905}}
{"name":"Treated Timber Drinking Fountain ", "street":"Flagstaff Gardens","loc":{"lon": 144.955101997265, "lat":-37.8097929563385}}
{"name":"Stainless Steel Drinking Fountain - Leaf Type", "street":"","loc":{"lon": 144.943864118641, "lat":-37.8241612946004}}
{"name":"unspecified type ", "street":"Alexandra Park","loc":{"lon": 144.97182464875, "lat":-37.8195711188052}}
{"name":"Stainless Steel Drinking Fountain - Leaf Type", "street":"","loc":{"lon": 144.942903892035, "lat":-37.8188136383738}}
{"name":"Stainless Steel Drinking Fountain - Leaf Type", "street":"","loc":{"lon": 144.93862697161, "lat":-37.8160798397503}}
{"name":"Historic or Heritage Drinking Fountains ", "street":"Victoria Parade (EAST MELBOURNE)","loc":{"lon": 144.975316533529, "lat":-37.808251146083}}
{"name":"Drinking Fountain - Type 1", "street":"","loc":{"lon": 144.968443358896, "lat":-37.7927528059838}}
{"name":"Drinking Fountain - Type 1", "street":"","loc":{"lon": 144.96636834131, "lat":-37.8033749605411}}
{"name":"Drinking Fountain - Type 1", "street":"","loc":{"lon": 144.95695655628, "lat":-37.8126275332669}}
{"name":"Historic or Heritage Drinking Fountains ", "street":"Royal Park","loc":{"lon": 144.951082880617, "lat":-37.78070592306}}
{"name":"Treated Timber Drinking Fountain ", "street":"Carlton Gardens North","loc":{"lon": 144.970746941042, "lat":-37.8015432407352}}
{"name":"Drinking Fountain - Type 1", "street":"","loc":{"lon": 144.991005541787, "lat":-37.8101300875071}}
{"name":"Stainless Steel Drinking Fountain - Leaf Type", "street":"","loc":{"lon": 144.94837757274, "lat":-37.8188456101475}}
{"name":"Historic or Heritage Drinking Fountains ", "street":"Queen Victoria Gardens","loc":{"lon": 144.970770576692, "lat":-37.8212367145505}}
{"name":"Treated Timber Drinking Fountain ", "street":"Gardiner Reserve","loc":{"lon": 144.943996213035, "lat":-37.7988578384787}}
{"name":"Stainless Steel Drinking Fountain - Northbank Type", "street":"","loc":{"lon": 144.96424043663, "lat":-37.8193878744274}}
{"name":"Drinking Fountain - Type 1", "street":"","loc":{"lon": 144.958038227771, "lat":-37.7938223393979}}
{"name":"Stainless Steel Drinking Fountain - Leaf Type", "street":"","loc":{"lon": 144.958479412123, "lat":-37.8165598194083}}
{"name":"Historic or Heritage Drinking Fountains ", "street":"Birrarung Marr","loc":{"lon": 144.973019382446, "lat":-37.8189077897311}}
{"name":"unspecified type ", "street":"Alexandra Park","loc":{"lon": 144.983545032951, "lat":-37.8279249255546}}
{"name":"Old Style Steel Drinking Fountain", "street":"","loc":{"lon": 144.971038079206, "lat":-37.7951581767444}}
{"name":"Drinking Fountain - Type 1", "street":"","loc":{"lon": 144.95713339672, "lat":-37.8061169039552}}
{"name":"Stainless Steel Drinking Fountain - Old Docklands Type", "street":"","loc":{"lon": 144.942864987696, "lat":-37.8145272518893}}
{"name":"Drinking Fountain - Monument Style Type 2", "street":"Hardy Reserve","loc":{"lon": 144.966191950519, "lat":-37.7852832706525}}
{"name":"Treated Timber Drinking Fountain ", "street":"Princes Park","loc":{"lon": 144.963077934929, "lat":-37.7860570095357}}
{"name":"Drinking Fountain - Type 1", "street":"","loc":{"lon": 144.946448993107, "lat":-37.7963935648132}}
{"name":"Treated Timber Drinking Fountain ", "street":"Royal Park","loc":{"lon": 144.953470604207, "lat":-37.7853316408844}}
{"name":"Treated Timber Drinking Fountain ", "street":"Royal Park","loc":{"lon": 144.952731046492, "lat":-37.7787439684459}}
{"name":"Drinking Fountain - Type 1", "street":"","loc":{"lon": 144.925216012916, "lat":-37.7894263403322}}
{"name":"Historic or Heritage Drinking Fountains ", "street":"Errol Street Reserve","loc":{"lon": 144.950413370728, "lat":-37.7992334738886}}
{"name":"Treated Timber Drinking Fountain ", "street":"Fitzroy Gardens","loc":{"lon": 144.983071937749, "lat":-37.8106933291554}}
{"name":"Stainless Steel Drinking Fountain - Leaf Type", "street":"","loc":{"lon": 144.973681157789, "lat":-37.8124380048556}}
